{
  "start_points": [
    {
      "id": "eurofins_labor",
      "type": "laboratory",
      "name": "Eurofins Labor Berlin",
      "name_en": "Eurofins Laboratory Berlin",
      "coordinates": [13.3050, 52.4680],
      "icon": "start",
      "color": "#22C55E",
      "address": "Laborstraße 42, 12345 Berlin",
      "operating_hours": "06:00 - 22:00",
      "daily_flights": 110,
      "contact": "+49 30 123456",
      "capabilities": [
        "Blutproben",
        "Gewebeproben",
        "Medikamente",
        "Laborergebnisse"
      ]
    }
  ],
  "destinations": [
    {
      "id": "charite_mitte",
      "type": "hospital",
      "name": "Charité - Campus Mitte",
      "name_en": "Charité - Campus Mitte",
      "coordinates": [13.3770, 52.5256],
      "icon": "hospital",
      "color": "#3B82F6",
      "address": "Charitéplatz 1, 10117 Berlin",
      "priority": "high",
      "daily_deliveries": 35,
      "avg_delivery_time_min": 7
    },
    {
      "id": "vivantes_neukoelln",
      "type": "hospital",
      "name": "Vivantes Klinikum Neukölln",
      "name_en": "Vivantes Hospital Neukölln",
      "coordinates": [13.4350, 52.4680],
      "icon": "hospital",
      "color": "#3B82F6",
      "address": "Rudower Str. 48, 12351 Berlin",
      "priority": "high",
      "daily_deliveries": 28,
      "avg_delivery_time_min": 8
    },
    {
      "id": "ukb_steglitz",
      "type": "hospital",
      "name": "Universitätsklinikum Benjamin Franklin",
      "name_en": "Benjamin Franklin University Hospital",
      "coordinates": [13.3180, 52.4420],
      "icon": "hospital",
      "color": "#3B82F6",
      "address": "Hindenburgdamm 30, 12203 Berlin",
      "priority": "medium",
      "daily_deliveries": 22,
      "avg_delivery_time_min": 6
    },
    {
      "id": "drk_westend",
      "type": "hospital",
      "name": "DRK Kliniken Berlin Westend",
      "name_en": "DRK Clinics Berlin Westend",
      "coordinates": [13.2750, 52.5180],
      "icon": "hospital",
      "color": "#3B82F6",
      "address": "Spandauer Damm 130, 14050 Berlin",
      "priority": "medium",
      "daily_deliveries": 15,
      "avg_delivery_time_min": 10
    },
    {
      "id": "helios_buch",
      "type": "hospital",
      "name": "HELIOS Klinikum Berlin-Buch",
      "name_en": "HELIOS Hospital Berlin-Buch",
      "coordinates": [13.4950, 52.6320],
      "icon": "hospital",
      "color": "#3B82F6",
      "address": "Schwanebecker Chaussee 50, 13125 Berlin",
      "priority": "low",
      "daily_deliveries": 10,
      "avg_delivery_time_min": 12
    }
  ],
  "immissionsorte": [
    {
      "id": "io_001",
      "name": "Wohngebiet Friedenau",
      "name_en": "Residential Area Friedenau",
      "type": "residential",
      "sensitivity": "high",
      "coordinates": [13.3350, 52.4650],
      "icon": "noise_sensor",
      "color": "#F59E0B",
      "current_noise_db": 52,
      "ta_limit_day_db": 55,
      "ta_limit_night_db": 40,
      "compliant": true,
      "complaints_30d": 0,
      "distance_to_route_m": 85,
      "population_affected": 2400
    },
    {
      "id": "io_002",
      "name": "Schule Am Park",
      "name_en": "School Am Park",
      "type": "school",
      "sensitivity": "very_high",
      "coordinates": [13.3280, 52.4720],
      "icon": "noise_sensor",
      "color": "#EF4444",
      "current_noise_db": 48,
      "ta_limit_day_db": 50,
      "ta_limit_night_db": 35,
      "compliant": true,
      "complaints_30d": 1,
      "distance_to_route_m": 120,
      "population_affected": 450
    },
    {
      "id": "io_003",
      "name": "Seniorenheim Lichterfelde",
      "name_en": "Senior Home Lichterfelde",
      "type": "care_facility",
      "sensitivity": "very_high",
      "coordinates": [13.3120, 52.4580],
      "icon": "noise_sensor",
      "color": "#EF4444",
      "current_noise_db": 45,
      "ta_limit_day_db": 50,
      "ta_limit_night_db": 35,
      "compliant": true,
      "complaints_30d": 0,
      "distance_to_route_m": 200,
      "population_affected": 180
    },
    {
      "id": "io_004",
      "name": "Mischgebiet Steglitz",
      "name_en": "Mixed Area Steglitz",
      "type": "mixed",
      "sensitivity": "medium",
      "coordinates": [13.3420, 52.4550],
      "icon": "noise_sensor",
      "color": "#F59E0B",
      "current_noise_db": 58,
      "ta_limit_day_db": 60,
      "ta_limit_night_db": 45,
      "compliant": true,
      "complaints_30d": 2,
      "distance_to_route_m": 45,
      "population_affected": 3200
    },
    {
      "id": "io_005",
      "name": "Gewerbegebiet Tempelhof",
      "name_en": "Commercial Area Tempelhof",
      "type": "commercial",
      "sensitivity": "low",
      "coordinates": [13.3680, 52.4720],
      "icon": "noise_sensor",
      "color": "#22C55E",
      "current_noise_db": 62,
      "ta_limit_day_db": 65,
      "ta_limit_night_db": 50,
      "compliant": true,
      "complaints_30d": 0,
      "distance_to_route_m": 30,
      "population_affected": 850
    },
    {
      "id": "io_006",
      "name": "Wohngebiet Mariendorf",
      "name_en": "Residential Area Mariendorf",
      "type": "residential",
      "sensitivity": "high",
      "coordinates": [13.3850, 52.4580],
      "icon": "noise_sensor",
      "color": "#F59E0B",
      "current_noise_db": 54,
      "ta_limit_day_db": 55,
      "ta_limit_night_db": 40,
      "compliant": true,
      "complaints_30d": 3,
      "distance_to_route_m": 95,
      "population_affected": 1850
    },
    {
      "id": "io_007",
      "name": "Krankenhaus Umgebung",
      "name_en": "Hospital Surroundings",
      "type": "hospital_area",
      "sensitivity": "very_high",
      "coordinates": [13.3750, 52.5200],
      "icon": "noise_sensor",
      "color": "#EF4444",
      "current_noise_db": 46,
      "ta_limit_day_db": 50,
      "ta_limit_night_db": 35,
      "compliant": true,
      "complaints_30d": 0,
      "distance_to_route_m": 150,
      "population_affected": 520
    },
    {
      "id": "io_008",
      "name": "Park Am Gleisdreieck",
      "name_en": "Park Gleisdreieck",
      "type": "recreation",
      "sensitivity": "medium",
      "coordinates": [13.3680, 52.4920],
      "icon": "noise_sensor",
      "color": "#22C55E",
      "current_noise_db": 51,
      "ta_limit_day_db": 55,
      "ta_limit_night_db": 40,
      "compliant": true,
      "complaints_30d": 1,
      "distance_to_route_m": 75,
      "population_affected": 0
    },
    {
      "id": "io_009",
      "name": "Industriegebiet Schöneberg",
      "name_en": "Industrial Area Schöneberg",
      "type": "industrial",
      "sensitivity": "very_low",
      "coordinates": [13.3520, 52.4850],
      "icon": "noise_sensor",
      "color": "#22C55E",
      "current_noise_db": 68,
      "ta_limit_day_db": 70,
      "ta_limit_night_db": 55,
      "compliant": true,
      "complaints_30d": 0,
      "distance_to_route_m": 20,
      "population_affected": 120
    },
    {
      "id": "io_010",
      "name": "Wohngebiet Kreuzberg",
      "name_en": "Residential Area Kreuzberg",
      "type": "residential",
      "sensitivity": "high",
      "coordinates": [13.4050, 52.4980],
      "icon": "noise_sensor",
      "color": "#EF4444",
      "current_noise_db": 55,
      "ta_limit_day_db": 55,
      "ta_limit_night_db": 40,
      "compliant": true,
      "complaints_30d": 5,
      "distance_to_route_m": 65,
      "population_affected": 4200
    }
  ]
}
